{
  "id": "ch-geneve-tergeoservices",
  "operator": "Etat de Genève – Infomobilité (canton-wide regional parking layer)",
  "country": "CH",
  "canton": "GE",
  "city": "Genève",
  "regional_coverage": ["Genève", "Vernier", "Lancy", "Meyrin", "Thônex", "Plan-les-Ouates", "Carouge"],
  "website": "https://ge.ch/terinfomobilite/",
  "endpoints": [
    {
      "primary": true,
      "url": "https://app2.ge.ch/tergeoservices/rest/services/Hosted/Parkings_LAST/FeatureServer/0/query?where=1%3D1&outFields=*&returnGeometry=true&f=json",
      "method": "GET",
      "format": "esri-featureserver-json",
      "auth": "none",
      "documented": false,
      "discovered_on": "https://ge.ch/terinfomobilite/",
      "refresh_seconds": 60,
      "response_shape": "Esri FeatureServer JSON: { features: [ { attributes: { objectid, id, nom, placedisponible, capacite, etat, date }, geometry: { x, y } } ], spatialReference: { wkid: 4326 } }",
      "fields": {
        "attributes.objectid": "internal OID (unique)",
        "attributes.id": "parking ID; -1 for placeholder / offline entries",
        "attributes.nom": "parking name",
        "attributes.placedisponible": "free spaces (live)",
        "attributes.capacite": "total capacity (0 for placeholders)",
        "attributes.etat": "state: 0 = unknown/offline, 1 = open, 2 = almost full, 3 = full",
        "attributes.date": "Unix epoch milliseconds of last update",
        "geometry.x": "longitude (WGS84)",
        "geometry.y": "latitude (WGS84)"
      },
      "notes": "Used by the official Etat de Genève Infomobilité web map. Coverage extends beyond Geneva city to the broader canton. Entries with id=-1 (Mont-Blanc, Arcades) are placeholders/offline; capacity field reports 0 for them. Two distinct Mont-Blanc entries exist (different objectids, likely sub-zones or a data anomaly)."
    }
  ],
  "parkings": [
    {"id": "grenus", "name": "Grenus", "capacity": 300, "coords": {"lat": 46.207, "lng": 6.143}, "lot_type": "Parkhaus"},
    {"id": "saint-antoine", "name": "Saint Antoine", "capacity": 500, "coords": {"lat": 46.200, "lng": 6.151}, "lot_type": "Parkhaus"},
    {"id": "villereuse", "name": "Villereuse", "capacity": 450, "coords": {"lat": 46.200, "lng": 6.159}, "lot_type": "Parkhaus"},
    {"id": "hepia", "name": "Hépia", "capacity": 185, "coords": {"lat": 46.210, "lng": 6.136}, "lot_type": "Parkhaus"},
    {"id": "uni-mail", "name": "Uni Mail", "capacity": 180, "coords": {"lat": 46.195, "lng": 6.140}, "lot_type": "Parkhaus"},
    {"id": "hotel-des-finances", "name": "Hôtel des Finances", "capacity": 340, "coords": {"lat": 46.203, "lng": 6.136}, "lot_type": "Parkhaus"},
    {"id": "moillesulaz", "name": "Moillesulaz", "capacity": 380, "coords": {"lat": 46.191, "lng": 6.205}, "lot_type": "Parkhaus", "notes": "Located in Thônex (canton border with France)."},
    {"id": "centre-communal", "name": "Centre Communal", "capacity": 250, "coords": {"lat": 46.181, "lng": 6.142}, "lot_type": "Parkhaus", "notes": "Located in Plan-les-Ouates."},
    {"id": "octroi", "name": "Octroi", "capacity": 296, "coords": {"lat": 46.188, "lng": 6.141}, "lot_type": "Parkhaus"},
    {"id": "fontenette", "name": "Fontenette", "capacity": 22, "coords": {"lat": 46.186, "lng": 6.146}, "lot_type": "Parkhaus", "notes": "Capacity value (22) looks suspect given live free-space counts often exceed it; feed data may have an error."},
    {"id": "rive", "name": "Rive", "capacity": 500, "coords": {"lat": 46.202, "lng": 6.154}, "lot_type": "Parkhaus"},
    {"id": "sardaigne", "name": "Sardaigne", "capacity": 301, "coords": {"lat": 46.184, "lng": 6.139}, "lot_type": "Parkhaus", "notes": "Located in Carouge."},
    {"id": "geneve-plage", "name": "Genève-Plage", "capacity": 900, "coords": {"lat": 46.212, "lng": 6.173}, "lot_type": "Parkplatz"},
    {"id": "cornavin", "name": "Cornavin", "capacity": 910, "coords": {"lat": 46.210, "lng": 6.143}, "lot_type": "Parkhaus"},
    {"id": "etoile", "name": "Etoile", "capacity": 600, "coords": {"lat": 46.187, "lng": 6.128}, "lot_type": "Parkhaus"},
    {"id": "secheron", "name": "Sécheron", "capacity": 412, "coords": {"lat": 46.222, "lng": 6.146}, "lot_type": "Parkhaus"},
    {"id": "plainpalais", "name": "Plainpalais", "capacity": 800, "coords": {"lat": 46.198, "lng": 6.141}, "lot_type": "Parkhaus"},
    {"id": "ansermet", "name": "Ansermet", "capacity": 610, "coords": {"lat": 46.195, "lng": 6.138}, "lot_type": "Parkhaus"},
    {"id": "david-dufour", "name": "David Dufour", "capacity": 440, "coords": {"lat": 46.201, "lng": 6.132}, "lot_type": "Parkhaus"},
    {"id": "uni-dufour", "name": "Uni Dufour", "capacity": 190, "coords": {"lat": 46.200, "lng": 6.142}, "lot_type": "Parkhaus"},
    {"id": "lombard", "name": "Lombard", "capacity": 780, "coords": {"lat": 46.194, "lng": 6.151}, "lot_type": "Parkhaus"},
    {"id": "alpes", "name": "Alpes", "capacity": 350, "coords": {"lat": 46.210, "lng": 6.147}, "lot_type": "Parkhaus"},
    {"id": "sous-moulin", "name": "Sous-Moulin", "capacity": 550, "coords": {"lat": 46.190, "lng": 6.193}, "lot_type": "Parkplatz", "notes": "Located in Thônex / Chêne-Bourg (P+R)."},
    {"id": "h-cluse", "name": "H-Cluse", "capacity": 460, "coords": {"lat": 46.193, "lng": 6.147}, "lot_type": "Parkhaus"},
    {"id": "place-des-nations", "name": "Place des Nations", "capacity": 1060, "coords": {"lat": 46.221, "lng": 6.138}, "lot_type": "Parkhaus"},
    {"id": "mont-blanc-a", "name": "Mont-Blanc", "capacity": null, "coords": null, "lot_type": "Parkhaus", "notes": "Feed reports id=-1 and capacity=0 (placeholder / offline). Two Mont-Blanc entries exist in the feed; this one has objectid=26."},
    {"id": "mont-blanc-b", "name": "Mont-Blanc", "capacity": null, "coords": null, "lot_type": "Parkhaus", "notes": "Feed reports id=-1 and capacity=0 (placeholder / offline). Two Mont-Blanc entries exist in the feed; this one has objectid=11."},
    {"id": "arcades", "name": "Arcades", "capacity": null, "coords": null, "lot_type": "Parkhaus", "notes": "Feed reports id=-1 and capacity=0 (placeholder / offline)."}
  ]
}
